{
	"start": [
		{
			"name": "출발역A",
			"address": "강남대로 무슨로 무슨길 711", 
			"lat": 1.23123, 
			"lng": 40.1231 
		},
		{
			"name": "출발역B",
			"address": "강남대로 무슨로 무슨길 711",
			"lat": 1.23123,
			"lng": 40.1231
		}
	],
	"midPoints": [
		{
			"name": "도착역A", 
			"address": "강남대로 무슨로 무슨길 711",
			"lat": 1.23123,
			"lng": 40.1231,
			"line": 3,
			"id": "고유한 값(보낼 때 같은 값)",
			"path": [
				{
					"startStation": "출발역A",
					"time": 80,
					"stations" : [
						{
							"name": "출발역A",
							"address": "강남대로 무슨로 무슨길 711",
							"lat": 1.23123,
							"lng": 40.1231
						}, 
						{
							"name": "중간역1",
							"address": "강남대로 무슨로 무슨길 711",
							"lat": 1.23123,
							"lng": 40.1231
						},
						{
							"name": "중간역2",
							"address": "강남대로 무슨로 무슨길 711",
							"lat": 1.23123,
							"lng": 40.1231
						},
						{
							"name": "도착역A",
							"address": "강남대로 무슨로 무슨길 711",
							"lat": 1.23123,
							"lng": 40.1231
						}
					]
				}, 
				{
					"startStation": "출발역B",
					"time": 80
					"stations" : [
						{
							"name": "출발역B"
							"address": "강남대로 무슨로 무슨길 711",
							"lat": 1.23123,
							"lng": 40.1231
						}, 
						{
							"name": "중간역1",
							"address": "강남대로 무슨로 무슨길 711",
							"lat": 1.23123,
							"lng": 40.1231
						},
						{
							"name": "중간역2"
							"address": "강남대로 무슨로 무슨길 711",
							"lat": 1.23123,
							"lng": 40.1231
						}, ...
						{
							"name": "도착역A"
							"address": "강남대로 무슨로 무슨길 711",
							"lat": 1.23123,
							"lng": 40.1231
						}
					]
				}
			]
		},
		{
			"name": "도착역B", 
			"address": "강남대로 무슨로 무슨길 711",
			"lat": 1.23123,
			"lng": 40.1231,
			"line": 3,
			"id": 2,
			"path": [
				{
					"startStation": "출발역A",
					"time": 80,
					"stations" : [
						{
							"name": "출발역A",
							"address": "강남대로 무슨로 무슨길 711",
							"lat": 1.23123,
							"lng": 40.1231
						}, 
						{
							"name": "중간역1",
							"address": "강남대로 무슨로 무슨길 711",
							"lat": 1.23123,
							"lng": 40.1231
						},
						{
							"name": "중간역2",
							"address": "강남대로 무슨로 무슨길 711",
							"lat": 1.23123,
							"lng": 40.1231
						}, 
						{
							"name": "도착역B",
							"address": "강남대로 무슨로 무슨길 711",
							"lat": 1.23123,
							"lng": 40.1231
						}
					]
				}, 
				{
					"startStation": "출발역B",
					"time": 80,
					"stations" : [
						{
							"name": "출발역B",
							"address": "강남대로 무슨로 무슨길 711",
							"lat": 1.23123,
							"lng": 40.1231
						}, 
						{
							"name": "중간역1",
							"address": "강남대로 무슨로 무슨길 711",
							"lat": 1.23123,
							"lng": 40.1231
						},
						{
							"name": "중간역2",
							"address": "강남대로 무슨로 무슨길 711",
							"lat": 1.23123,
							"lng": 40.1231
						}, 
						{
							"name": "도착역B",
							"address": "강남대로 무슨로 무슨길 711",
							"lat": 1.23123,
							"lng": 40.1231
						}
					]
				}
			]
		},
		{
			"name": "도착역C", 
			"address": "강남대로 무슨로 무슨길 711",
			"lat": 1.23123,
			"lng": 40.1231,
			"line": 3,
			"id": 3,
			"path": [
				{
					"startStation": "출발역A",
					"time": 80,
					"stations" : [
						{
							"name": "출발역A",
							"address": "강남대로 무슨로 무슨길 711",
							"lat": 1.23123,
							"lng": 40.1231
						}, 
						{
							"name": "중간역1",
							"address": "강남대로 무슨로 무슨길 711",
							"lat": 1.23123,
							"lng": 40.1231
						},
						{
							"name": "중간역2",
							"address": "강남대로 무슨로 무슨길 711",
							"lat": 1.23123,
							"lng": 40.1231
						}, 
						{
							"name": "도착역C",
							"address": "강남대로 무슨로 무슨길 711",
							"lat": 1.23123,
							"lng": 40.1231
						}
					]
				}, 
				{
					"startStation": "출발역B",
					"time": 80,
					"stations" : [
						{
							"name": "출발역B",
							"address": "강남대로 무슨로 무슨길 711",
							"lat": 1.23123,
							"lng": 40.1231
						}, 
						{
							"name": "중간역1",
							"address": "강남대로 무슨로 무슨길 711",
							"lat": 1.23123,
							"lng": 40.1231
						},
						{
							"name": "중간역2",
							"address": "강남대로 무슨로 무슨길 711",
							"lat": 1.23123,
							"lng": 40.1231
						}, 
						{
							"name": "도착역C",
							"address": "강남대로 무슨로 무슨길 711",
							"lat": 1.23123,
							"lng": 40.1231
						}
					]
				}
			]
		}
	]
}